{
  "d": {
    "results": [
      {
        "ID": "burger-king-kokomo-6",
        "Title": "Burger King",
        "Description": "Burger King",
        "DisplayUrl": "http://www.yelp.com/biz/burger-king-kokomo-6",
        "Url": "http://www.yelp.com/biz/burger-king-kokomo-6",
        "rating_img_url_small": "http://s3-media3.ak.yelpcdn.com/assets/2/www/img/902abeed0983/ico/stars/v1/stars_small_3.png",
        "Distance": "0",
        "ZipCode": "",
        "PhoneNumber": "+1-765-452-4227",
        "Address": "1621 E Markland Ave",
        "City": "Kokomo",
        "State": "IN",
        "Country": "US",
        "Longitude": "-86.1113274",
        "Latitude": "40.4766539",
        "Hours": "",
        "ReviewCount": "1",
        "RatingCount": "",
        "UserRating": "3"
      },
      {
        "ID": "rallys-kokomo",
        "Title": "Rally's",
        "Description": "Rally's",
        "DisplayUrl": "http://www.yelp.com/biz/rallys-kokomo",
        "Url": "http://www.yelp.com/biz/rallys-kokomo",
        "rating_img_url_small": "http://s3-media1.ak.yelpcdn.com/assets/2/www/img/c7623205d5cd/ico/stars/v1/stars_small_5.png",
        "Distance": "0",
        "ZipCode": "",
        "PhoneNumber": "+1-765-452-9967",
        "Address": "1825 E Hoffer St",
        "City": "Kokomo",
        "State": "IN",
        "Country": "US",
        "Longitude": "-86.109123",
        "Latitude": "40.465495",
        "Hours": "",
        "ReviewCount": "1",
        "RatingCount": "",
        "UserRating": "5"
      },
      {
        "ID": "half-moon-restaurant-and-brewery-kokomo",
        "Title": "Half Moon Restaurant & Brewery",
        "Description": "Half Moon Restaurant & Brewery",
        "DisplayUrl": "http://www.yelp.com/biz/half-moon-restaurant-and-brewery-kokomo",
        "Url": "http://www.yelp.com/biz/half-moon-restaurant-and-brewery-kokomo",
        "rating_img_url_small": "http://s3-media4.ak.yelpcdn.com/assets/2/www/img/f62a5be2f902/ico/stars/v1/stars_small_4.png",
        "Distance": "0",
        "ZipCode": "",
        "PhoneNumber": "+1-765-455-2739",
        "Address": "4051 S Lafountain St",
        "City": "Kokomo",
        "State": "IN",
        "Country": "US",
        "Longitude": "-86.12731",
        "Latitude": "40.4389712",
        "Hours": "",
        "ReviewCount": "34",
        "RatingCount": "",
        "UserRating": "4"
      },
      {
        "ID": "frittatas-restaurant-kokomo",
        "Title": "Frittatas Restaurant",
        "Description": "Frittatas Restaurant",
        "DisplayUrl": "http://www.yelp.com/biz/frittatas-restaurant-kokomo",
        "Url": "http://www.yelp.com/biz/frittatas-restaurant-kokomo",
        "rating_img_url_small": "http://s3-media2.ak.yelpcdn.com/assets/2/www/img/a5221e66bc70/ico/stars/v1/stars_small_4_half.png",
        "Distance": "0",
        "ZipCode": "",
        "PhoneNumber": "+1-765-626-0239",
        "Address": "306 Espanol Dr",
        "City": "Kokomo",
        "State": "IN",
        "Country": "US",
        "Longitude": "-86.1286564",
        "Latitude": "40.4535656",
        "Hours": "",
        "ReviewCount": "2",
        "RatingCount": "",
        "UserRating": "4.5"
      },
      {
        "ID": "white-castle-kokomo",
        "Title": "White Castle",
        "Description": "White Castle",
        "DisplayUrl": "http://www.yelp.com/biz/white-castle-kokomo",
        "Url": "http://www.yelp.com/biz/white-castle-kokomo",
        "rating_img_url_small": "http://s3-media3.ak.yelpcdn.com/assets/2/www/img/902abeed0983/ico/stars/v1/stars_small_3.png",
        "Distance": "0",
        "ZipCode": "",
        "PhoneNumber": "+1-765-868-2731",
        "Address": "1801 E Markland Ave",
        "City": "Kokomo",
        "State": "IN",
        "Country": "US",
        "Longitude": "-86.1075887",
        "Latitude": "40.4766837",
        "Hours": "",
        "ReviewCount": "2",
        "RatingCount": "",
        "UserRating": "3"
      }
    ]
  }
}

